{
  "routeName": "渋谷駅ハチ公口 から 道玄坂・奥渋谷方面ルート",
  "points": [
    { "lng": 139.70168, "lat": 35.65809, "elevation": 15, "label": "渋谷駅ハチ公口" },
    { "lng": 139.70084, "lat": 35.65845, "elevation": 16 },
    { "lng": 139.69998, "lat": 35.65880, "elevation": 18 },
    { "lng": 139.69912, "lat": 35.65910, "elevation": 22, "label": "道玄坂入口" },
    { "lng": 139.69828, "lat": 35.65945, "elevation": 28 },
    { "lng": 139.69744, "lat": 35.65978, "elevation": 35 },
    { "lng": 139.69672, "lat": 35.66012, "elevation": 39, "label": "道玄坂上交差点" },
    { "lng": 139.69612, "lat": 35.66068, "elevation": 40 },
    { "lng": 139.69568, "lat": 35.66132, "elevation": 37 },
    { "lng": 139.69544, "lat": 35.66200, "elevation": 31 },
    { "lng": 139.69552, "lat": 35.66268, "elevation": 24, "label": "奥渋谷入口" },
    { "lng": 139.69588, "lat": 35.66322, "elevation": 19, "label": "ログロード代官山" }
  ]
}
